[
  {
    "name": "Iconic Shyamal",
    "Lat": 23.019450,
    "Long": 72.530209
  },
  {
    "name": "Jivraj Park",
    "Lat": 23.007971,
    "Long": 72.540024
  },
  {
    "name": "Nehrunagar Bus Stop",
    "Lat": 23.021607,
    "Long": 72.537951
  },
  {
    "name": "L.D. College",
    "Lat": 23.032810,
    "Long": 72.549362
  },
  {
    "name": "Motera stadium",
    "Lat": 23.093559,
    "Long": 72.594681
  },
  {
    "name": "Kankaria",
    "Lat": 23.005020,
    "Long": 72.595161
  },
  {
    "name": "Sabarmati Riverfront",
    "Lat": 23.012928,
    "Long": 72.555787
  },
  {
    "name": "Ahmedabad Junction",
    "Lat": 23.014509,
    "Long": 72.591759
  },
  {
    "name": "Gita Mandir",
    "Lat": 23.019109,
    "Long": 72.600259
  },
  {
    "name": "Domestic Airport",
    "Lat": 22.961869,
    "Long": 72.571480
  },
  {
    "name": "Delhi",
    "Lat": 28.704060,
    "Long": 77.102493
  },
  {
    "name": "California",
    "Lat": 36.778259,
    "Long": -119.417931
  },
  {
    "name": "Paris",
    "Lat": 48.856613,
    "Long": 2.352222
  }
]